markers=[
    {
        "name": "16 number bus stop, Thergaon",
        "lat": "18.60876",
        "lng": "73.771012"
    },
    {
        "name": "Adarsh Colony, Hadapsar",
        "lat": "18.483462",
        "lng": "73.937726"
    },
    {
        "name": "Adarsh Indira nagar, Yerwada",
        "lat": "18.559018",
        "lng": "73.875155"
    },
    {
        "name": "Bajaj School Area, Sambhajinagar",
        "lat": "18.659033",
        "lng": "73.798658"
    },
    {
        "name": "Balaji Nagar, Ghorpadi",
        "lat": "18.525552",
        "lng": "73.899635"
    },
    {
        "name": "Bankar Vasti, Moshi",
        "lat": "18.671018",
        "lng": "73.840602"
    },
    {
        "name": "Behind Congress Bhavan, Shivaji Nagar",
        "lat": "18.523131",
        "lng": "73.851838"
    },
    {
        "name": "Bhagyoday Nagar, Kondhwa",
        "lat": "18.471253",
        "lng": "73.887452"
    },
    {
        "name": "Bibewadi Sr no. 650",
        "lat": "18.467275",
        "lng": "73.873374"
    },
    {
        "name": "Bibewadi, Ambedkar nagar",
        "lat": "18.483948",
        "lng": "73.866514"
    },
    {
        "name": "Bibewadi, Gultekdi",
        "lat": "18.495634",
        "lng": "73.869969"
    },
    {
        "name": "Bibewadi, Indira Nagar",
        "lat": "18.463694",
        "lng": "73.870345"
    },
    {
        "name": "Central Pune",
        "lat": "18.515069",
        "lng": "73.865837"
    },
    {
        "name": "Chandragupta Society, Kothrud",
        "lat": "18.507219",
        "lng": "73.798105"
    },
    {
        "name": "Chintamani Nagar, Hadapsar",
        "lat": "18.487482",
        "lng": "73.933012"
    },
    {
        "name": "Dattanagar, Thergaon",
        "lat": "18.623916",
        "lng": "73.773876"
    },
    {
        "name": "Dhankawadi Balaji Nagari",
        "lat": "18.465928",
        "lng": "73.860351"
    },
    {
        "name": "Dhankawadi, Gulabnagar",
        "lat": "18.465173",
        "lng": "73.852689"
    },
    {
        "name": "Gandharva Nagari, Moshi",
        "lat": "18.65275",
        "lng": "73.852865"
    },
    {
        "name": "Gandhinagar, Yerwada",
        "lat": "18.550821",
        "lng": "73.891376"
    },
    {
        "name": "Gandhinagar, Yerwada",
        "lat": "18.548609",
        "lng": "73.890461"
    },
    {
        "name": "Ganesh Nagar, Dapodi",
        "lat": "18.584343",
        "lng": "73.829575"
    },
    {
        "name": "Gosavi vasta, Hadapsar",
        "lat": "18.504131",
        "lng": "73.917987"
    },
    {
        "name": "Gulam ali nagar, Hadapsar",
        "lat": "18.482356",
        "lng": "73.929929"
    },
    {
        "name": "Gultekdi, Dias Plot",
        "lat": "18.497372",
        "lng": "73.870006"
    },
    {
        "name": "Gultekdi, Minatai",
        "lat": "18.49388",
        "lng": "73.867308"
    },
    {
        "name": "Guruvihar Society, Bhosari",
        "lat": "18.642629",
        "lng": "73.850065"
    },
    {
        "name": "Hutatma Chowk, Bhosari",
        "lat": "18.623843",
        "lng": "73.854134"
    },
    {
        "name": "Indira Nagar, Chinchwad",
        "lat": "18.64201",
        "lng": "73.781046"
    },
    {
        "name": "Indiranagar, Handewadi road, Hadapsar",
        "lat": "18.470224",
        "lng": "73.931764"
    },
    {
        "name": "Jagtap Complex, Pimple Gurav",
        "lat": "18.596078",
        "lng": "73.817627"
    },
    {
        "name": "Kalas, Jadhav Wasti",
        "lat": "18.577177",
        "lng": "73.875918"
    },
    {
        "name": "Kalewadi",
        "lat": "18.617122",
        "lng": "73.790426"
    },
    {
        "name": "Katraj, Sukhsagar Nagar",
        "lat": "18.455991",
        "lng": "73.870016"
    },
    {
        "name": "Kharalwadi",
        "lat": "18.6281",
        "lng": "73.811194"
    },
    {
        "name": "Kondhwa Budruk, Kakade Basti",
        "lat": "18.463706",
        "lng": "73.880191"
    },
    {
        "name": "Landgenagar",
        "lat": "18.639314",
        "lng": "73.848689"
    },
    {
        "name": "Lohegaon, Kalwad wasti",
        "lat": "18.587411",
        "lng": "73.905105"
    },
    {
        "name": "Madhuban Society, Old Sanghvi",
        "lat": "18.570093",
        "lng": "73.81487"
    },
    {
        "name": "Mahatma gandhi slum, Shivajinagar",
        "lat": "18.532088",
        "lng": "73.853034"
    },
    {
        "name": "Malwadi, Hadapsar",
        "lat": "18.507815",
        "lng": "73.939839"
    },
    {
        "name": "Mangalwar Peth, Juna Bazar",
        "lat": "18.527088",
        "lng": "73.861132"
    },
    {
        "name": "Mitha Nagar, Kondhwa",
        "lat": "18.465057",
        "lng": "73.886581"
    },
    {
        "name": "Mohannagar",
        "lat": "18.64409",
        "lng": "73.796488"
    },
    {
        "name": "Na Ta Wadi, Shivaji Nagar",
        "lat": "18.536265",
        "lng": "73.849319"
    },
    {
        "name": "Nagpur Chawl, Yerwada",
        "lat": "18.562159",
        "lng": "73.894196"
    },
    {
        "name": "New Angels School, Talwade",
        "lat": "18.681403",
        "lng": "73.785735"
    },
    {
        "name": "Nikamvasti, Charholi",
        "lat": "18.653724",
        "lng": "73.907914"
    },
    {
        "name": "Notting Hill society",
        "lat": "18.460182",
        "lng": "73.896825"
    },
    {
        "name": "Parvati Chawl",
        "lat": "18.499091",
        "lng": "73.850758"
    },
    {
        "name": "Parvati Dandekar Pul Slums",
        "lat": "18.502595",
        "lng": "73.846806"
    },
    {
        "name": "Parvati Darshan",
        "lat": "18.495159",
        "lng": "73.856131"
    },
    {
        "name": "Parvati Darshan 2",
        "lat": "18.494001",
        "lng": "73.853225"
    },
    {
        "name": "Parvati Duttawadi",
        "lat": "18.503849",
        "lng": "73.838066"
    },
    {
        "name": "Parvati Indira Nagar Slum - Nelayam Theatre",
        "lat": "18.500753",
        "lng": "73.850647"
    },
    {
        "name": "Parvati Indira Nagar Slum Nelayam theatre 2",
        "lat": "18.501197",
        "lng": "73.849944"
    },
    {
        "name": "Parvati Shivdarshan",
        "lat": "18.491276",
        "lng": "73.854471"
    },
    {
        "name": "Parvati, Shivdarshan",
        "lat": "18.491129",
        "lng": "73.852998"
    },
    {
        "name": "Patil estate, Shivajinagar",
        "lat": "18.532641",
        "lng": "73.853948"
    },
    {
        "name": "Phule Nagar, Yerwada",
        "lat": "18.5589",
        "lng": "73.877863"
    },
    {
        "name": "Pimpri Camp",
        "lat": "18.621464",
        "lng": "73.80329"
    },
    {
        "name": "Prem Nagar Slum, Bibewadi",
        "lat": "18.484733",
        "lng": "73.862871"
    },
    {
        "name": "Ram tekadi, Hadapsar",
        "lat": "18.502538",
        "lng": "73.915295"
    },
    {
        "name": "Ramnagar, Hadapsar",
        "lat": "18.504067",
        "lng": "73.915888"
    },
    {
        "name": "Ramnagar, Vangaon sheri",
        "lat": "18.55153",
        "lng": "73.919729"
    },
    {
        "name": "Rupeenagar",
        "lat": "18.674741",
        "lng": "73.783074"
    },
    {
        "name": "Sai Samruddhi area, Jambhuwadi",
        "lat": "18.433383",
        "lng": "73.84457"
    },
    {
        "name": "Satavwadi, Hadapsar",
        "lat": "18.498162",
        "lng": "73.94227"
    },
    {
        "name": "Sathe Nagar, Charholi",
        "lat": "18.599823",
        "lng": "73.923671"
    },
    {
        "name": "Sayyad Nagar, Hadapsar",
        "lat": "18.486407",
        "lng": "73.928946"
    },
    {
        "name": "Sayyad nagar, Hadapsar",
        "lat": "18.48572",
        "lng": "73.931144"
    },
    {
        "name": "Sayyad nagar, Hadapsar",
        "lat": "18.489091",
        "lng": "73.930254"
    },
    {
        "name": "Seventh day Advantis Mission, Gultekdi",
        "lat": "18.490369",
        "lng": "73.873538"
    },
    {
        "name": "Shivaji Chowk, Pimple Nilakh da",
        "lat": "18.571546",
        "lng": "73.793151"
    },
    {
        "name": "Shivaji nagar railway station, north side",
        "lat": "18.532925",
        "lng": "73.850691"
    },
    {
        "name": "Shivajinagar Railway station south side",
        "lat": "18.530987",
        "lng": "73.851251"
    },
    {
        "name": "Shivajinagar, Kamgar Putala",
        "lat": "18.527019",
        "lng": "73.858213"
    },
    {
        "name": "Shivneri Colony, Pimple Gurav",
        "lat": "18.590045",
        "lng": "73.824796"
    },
    {
        "name": "Shivneri Nagar, Kondhwa",
        "lat": "18.475296",
        "lng": "73.88461"
    },
    {
        "name": "Shivtara Society, Kothrud",
        "lat": "18.501638",
        "lng": "73.805966"
    },
    {
        "name": "Shubhashree Row House Society, Pimple Saudagar",
        "lat": "18.593253",
        "lng": "73.793634"
    },
    {
        "name": "Slum Area Behind Labour Office, Shivaji Nagar",
        "lat": "18.53627",
        "lng": "73.850524"
    },
    {
        "name": "Tadi Gutta, Yerwada",
        "lat": "18.544841",
        "lng": "73.886473"
    },
    {
        "name": "Tadiwala Road, Pune station",
        "lat": "18.535828",
        "lng": "73.871811"
    },
    {
        "name": "Talijai vasti, Parvati",
        "lat": "18.477567",
        "lng": "73.851141"
    },
    {
        "name": "Taljai vasti, Parvati",
        "lat": "18.476139",
        "lng": "73.85013"
    },
    {
        "name": "Tamboli Market, Kondhwa",
        "lat": "18.469698",
        "lng": "73.883445"
    },
    {
        "name": "Tamhane vasti",
        "lat": "18.673792",
        "lng": "73.791209"
    },
    {
        "name": "Tanishq Icon, Dighi",
        "lat": "18.620971",
        "lng": "73.875702"
    },
    {
        "name": "Tapkir Chowk",
        "lat": "18.612224",
        "lng": "73.784515"
    },
    {
        "name": "Tapovan Road, Pimple Waghere",
        "lat": "18.613489",
        "lng": "73.800784"
    },
    {
        "name": "Undri Hole Wasti",
        "lat": "18.457691",
        "lng": "73.912099"
    },
    {
        "name": "Vadgaon Sheri, Ganesh Nagar",
        "lat": "18.555105",
        "lng": "73.926785"
    },
    {
        "name": "Vetal Nagar, Hadapsar",
        "lat": "18.497052",
        "lng": "73.938548"
    },
    {
        "name": "Vijay Nagar, Dighi",
        "lat": "18.612445",
        "lng": "73.878293"
    },
    {
        "name": "Vinayak Nagar, Pimple Gurav",
        "lat": "18.58432",
        "lng": "73.813733"
    },
    {
        "name": "Wanawadi, SRPF",
        "lat": "18.495336",
        "lng": "73.908042"
    },
    {
        "name": "Ward 6, Yerwada",
        "lat": "18.548181",
        "lng": "73.882978"
    },
    {
        "name": "Woodsville, Moshi",
        "lat": "18.667531",
        "lng": "73.833599"
    }
][
    {
        "name": "16 number bus stop, Thergaon",
        "lat": "18.60876",
        "lng": "73.771012"
    },
    {
        "name": "Adarsh Colony, Hadapsar",
        "lat": "18.483462",
        "lng": "73.937726"
    },
    {
        "name": "Adarsh Indira nagar, Yerwada",
        "lat": "18.559018",
        "lng": "73.875155"
    },
    {
        "name": "Bajaj School Area, Sambhajinagar",
        "lat": "18.659033",
        "lng": "73.798658"
    },
    {
        "name": "Balaji Nagar, Ghorpadi",
        "lat": "18.525552",
        "lng": "73.899635"
    },
    {
        "name": "Bankar Vasti, Moshi",
        "lat": "18.671018",
        "lng": "73.840602"
    },
    {
        "name": "Behind Congress Bhavan, Shivaji Nagar",
        "lat": "18.523131",
        "lng": "73.851838"
    },
    {
        "name": "Bhagyoday Nagar, Kondhwa",
        "lat": "18.471253",
        "lng": "73.887452"
    },
    {
        "name": "Bibewadi Sr no. 650",
        "lat": "18.467275",
        "lng": "73.873374"
    },
    {
        "name": "Bibewadi, Ambedkar nagar",
        "lat": "18.483948",
        "lng": "73.866514"
    },
    {
        "name": "Bibewadi, Gultekdi",
        "lat": "18.495634",
        "lng": "73.869969"
    },
    {
        "name": "Bibewadi, Indira Nagar",
        "lat": "18.463694",
        "lng": "73.870345"
    },
    {
        "name": "Central Pune",
        "lat": "18.515069",
        "lng": "73.865837"
    },
    {
        "name": "Chandragupta Society, Kothrud",
        "lat": "18.507219",
        "lng": "73.798105"
    },
    {
        "name": "Chintamani Nagar, Hadapsar",
        "lat": "18.487482",
        "lng": "73.933012"
    },
    {
        "name": "Dattanagar, Thergaon",
        "lat": "18.623916",
        "lng": "73.773876"
    },
    {
        "name": "Dhankawadi Balaji Nagari",
        "lat": "18.465928",
        "lng": "73.860351"
    },
    {
        "name": "Dhankawadi, Gulabnagar",
        "lat": "18.465173",
        "lng": "73.852689"
    },
    {
        "name": "Gandharva Nagari, Moshi",
        "lat": "18.65275",
        "lng": "73.852865"
    },
    {
        "name": "Gandhinagar, Yerwada",
        "lat": "18.550821",
        "lng": "73.891376"
    },
    {
        "name": "Gandhinagar, Yerwada",
        "lat": "18.548609",
        "lng": "73.890461"
    },
    {
        "name": "Ganesh Nagar, Dapodi",
        "lat": "18.584343",
        "lng": "73.829575"
    },
    {
        "name": "Gosavi vasta, Hadapsar",
        "lat": "18.504131",
        "lng": "73.917987"
    },
    {
        "name": "Gulam ali nagar, Hadapsar",
        "lat": "18.482356",
        "lng": "73.929929"
    },
    {
        "name": "Gultekdi, Dias Plot",
        "lat": "18.497372",
        "lng": "73.870006"
    },
    {
        "name": "Gultekdi, Minatai",
        "lat": "18.49388",
        "lng": "73.867308"
    },
    {
        "name": "Guruvihar Society, Bhosari",
        "lat": "18.642629",
        "lng": "73.850065"
    },
    {
        "name": "Hutatma Chowk, Bhosari",
        "lat": "18.623843",
        "lng": "73.854134"
    },
    {
        "name": "Indira Nagar, Chinchwad",
        "lat": "18.64201",
        "lng": "73.781046"
    },
    {
        "name": "Indiranagar, Handewadi road, Hadapsar",
        "lat": "18.470224",
        "lng": "73.931764"
    },
    {
        "name": "Jagtap Complex, Pimple Gurav",
        "lat": "18.596078",
        "lng": "73.817627"
    },
    {
        "name": "Kalas, Jadhav Wasti",
        "lat": "18.577177",
        "lng": "73.875918"
    },
    {
        "name": "Kalewadi",
        "lat": "18.617122",
        "lng": "73.790426"
    },
    {
        "name": "Katraj, Sukhsagar Nagar",
        "lat": "18.455991",
        "lng": "73.870016"
    },
    {
        "name": "Kharalwadi",
        "lat": "18.6281",
        "lng": "73.811194"
    },
    {
        "name": "Kondhwa Budruk, Kakade Basti",
        "lat": "18.463706",
        "lng": "73.880191"
    },
    {
        "name": "Landgenagar",
        "lat": "18.639314",
        "lng": "73.848689"
    },
    {
        "name": "Lohegaon, Kalwad wasti",
        "lat": "18.587411",
        "lng": "73.905105"
    },
    {
        "name": "Madhuban Society, Old Sanghvi",
        "lat": "18.570093",
        "lng": "73.81487"
    },
    {
        "name": "Mahatma gandhi slum, Shivajinagar",
        "lat": "18.532088",
        "lng": "73.853034"
    },
    {
        "name": "Malwadi, Hadapsar",
        "lat": "18.507815",
        "lng": "73.939839"
    },
    {
        "name": "Mangalwar Peth, Juna Bazar",
        "lat": "18.527088",
        "lng": "73.861132"
    },
    {
        "name": "Mitha Nagar, Kondhwa",
        "lat": "18.465057",
        "lng": "73.886581"
    },
    {
        "name": "Mohannagar",
        "lat": "18.64409",
        "lng": "73.796488"
    },
    {
        "name": "Na Ta Wadi, Shivaji Nagar",
        "lat": "18.536265",
        "lng": "73.849319"
    },
    {
        "name": "Nagpur Chawl, Yerwada",
        "lat": "18.562159",
        "lng": "73.894196"
    },
    {
        "name": "New Angels School, Talwade",
        "lat": "18.681403",
        "lng": "73.785735"
    },
    {
        "name": "Nikamvasti, Charholi",
        "lat": "18.653724",
        "lng": "73.907914"
    },
    {
        "name": "Notting Hill society",
        "lat": "18.460182",
        "lng": "73.896825"
    },
    {
        "name": "Parvati Chawl",
        "lat": "18.499091",
        "lng": "73.850758"
    },
    {
        "name": "Parvati Dandekar Pul Slums",
        "lat": "18.502595",
        "lng": "73.846806"
    },
    {
        "name": "Parvati Darshan",
        "lat": "18.495159",
        "lng": "73.856131"
    },
    {
        "name": "Parvati Darshan 2",
        "lat": "18.494001",
        "lng": "73.853225"
    },
    {
        "name": "Parvati Duttawadi",
        "lat": "18.503849",
        "lng": "73.838066"
    },
    {
        "name": "Parvati Indira Nagar Slum - Nelayam Theatre",
        "lat": "18.500753",
        "lng": "73.850647"
    },
    {
        "name": "Parvati Indira Nagar Slum Nelayam theatre 2",
        "lat": "18.501197",
        "lng": "73.849944"
    },
    {
        "name": "Parvati Shivdarshan",
        "lat": "18.491276",
        "lng": "73.854471"
    },
    {
        "name": "Parvati, Shivdarshan",
        "lat": "18.491129",
        "lng": "73.852998"
    },
    {
        "name": "Patil estate, Shivajinagar",
        "lat": "18.532641",
        "lng": "73.853948"
    },
    {
        "name": "Phule Nagar, Yerwada",
        "lat": "18.5589",
        "lng": "73.877863"
    },
    {
        "name": "Pimpri Camp",
        "lat": "18.621464",
        "lng": "73.80329"
    },
    {
        "name": "Prem Nagar Slum, Bibewadi",
        "lat": "18.484733",
        "lng": "73.862871"
    },
    {
        "name": "Ram tekadi, Hadapsar",
        "lat": "18.502538",
        "lng": "73.915295"
    },
    {
        "name": "Ramnagar, Hadapsar",
        "lat": "18.504067",
        "lng": "73.915888"
    },
    {
        "name": "Ramnagar, Vangaon sheri",
        "lat": "18.55153",
        "lng": "73.919729"
    },
    {
        "name": "Rupeenagar",
        "lat": "18.674741",
        "lng": "73.783074"
    },
    {
        "name": "Sai Samruddhi area, Jambhuwadi",
        "lat": "18.433383",
        "lng": "73.84457"
    },
    {
        "name": "Satavwadi, Hadapsar",
        "lat": "18.498162",
        "lng": "73.94227"
    },
    {
        "name": "Sathe Nagar, Charholi",
        "lat": "18.599823",
        "lng": "73.923671"
    },
    {
        "name": "Sayyad Nagar, Hadapsar",
        "lat": "18.486407",
        "lng": "73.928946"
    },
    {
        "name": "Sayyad nagar, Hadapsar",
        "lat": "18.48572",
        "lng": "73.931144"
    },
    {
        "name": "Sayyad nagar, Hadapsar",
        "lat": "18.489091",
        "lng": "73.930254"
    },
    {
        "name": "Seventh day Advantis Mission, Gultekdi",
        "lat": "18.490369",
        "lng": "73.873538"
    },
    {
        "name": "Shivaji Chowk, Pimple Nilakh da",
        "lat": "18.571546",
        "lng": "73.793151"
    },
    {
        "name": "Shivaji nagar railway station, north side",
        "lat": "18.532925",
        "lng": "73.850691"
    },
    {
        "name": "Shivajinagar Railway station south side",
        "lat": "18.530987",
        "lng": "73.851251"
    },
    {
        "name": "Shivajinagar, Kamgar Putala",
        "lat": "18.527019",
        "lng": "73.858213"
    },
    {
        "name": "Shivneri Colony, Pimple Gurav",
        "lat": "18.590045",
        "lng": "73.824796"
    },
    {
        "name": "Shivneri Nagar, Kondhwa",
        "lat": "18.475296",
        "lng": "73.88461"
    },
    {
        "name": "Shivtara Society, Kothrud",
        "lat": "18.501638",
        "lng": "73.805966"
    },
    {
        "name": "Shubhashree Row House Society, Pimple Saudagar",
        "lat": "18.593253",
        "lng": "73.793634"
    },
    {
        "name": "Slum Area Behind Labour Office, Shivaji Nagar",
        "lat": "18.53627",
        "lng": "73.850524"
    },
    {
        "name": "Tadi Gutta, Yerwada",
        "lat": "18.544841",
        "lng": "73.886473"
    },
    {
        "name": "Tadiwala Road, Pune station",
        "lat": "18.535828",
        "lng": "73.871811"
    },
    {
        "name": "Talijai vasti, Parvati",
        "lat": "18.477567",
        "lng": "73.851141"
    },
    {
        "name": "Taljai vasti, Parvati",
        "lat": "18.476139",
        "lng": "73.85013"
    },
    {
        "name": "Tamboli Market, Kondhwa",
        "lat": "18.469698",
        "lng": "73.883445"
    },
    {
        "name": "Tamhane vasti",
        "lat": "18.673792",
        "lng": "73.791209"
    },
    {
        "name": "Tanishq Icon, Dighi",
        "lat": "18.620971",
        "lng": "73.875702"
    },
    {
        "name": "Tapkir Chowk",
        "lat": "18.612224",
        "lng": "73.784515"
    },
    {
        "name": "Tapovan Road, Pimple Waghere",
        "lat": "18.613489",
        "lng": "73.800784"
    },
    {
        "name": "Undri Hole Wasti",
        "lat": "18.457691",
        "lng": "73.912099"
    },
    {
        "name": "Vadgaon Sheri, Ganesh Nagar",
        "lat": "18.555105",
        "lng": "73.926785"
    },
    {
        "name": "Vetal Nagar, Hadapsar",
        "lat": "18.497052",
        "lng": "73.938548"
    },
    {
        "name": "Vijay Nagar, Dighi",
        "lat": "18.612445",
        "lng": "73.878293"
    },
    {
        "name": "Vinayak Nagar, Pimple Gurav",
        "lat": "18.58432",
        "lng": "73.813733"
    },
    {
        "name": "Wanawadi, SRPF",
        "lat": "18.495336",
        "lng": "73.908042"
    },
    {
        "name": "Ward 6, Yerwada",
        "lat": "18.548181",
        "lng": "73.882978"
    },
    {
        "name": "Woodsville, Moshi",
        "lat": "18.667531",
        "lng": "73.833599"
    }
]
